{

    "events": [

        {

            "lat": 35.675067,
            "long": 10.079602,
            "address": "M3GH+2XR, Kairouan",
            "address_label": "Kairouan, Kairouan",
            "isVisble": false
        },
        {

            "lat": 35.653065,
            "long": 10.108766,
            "address": "M435+6GC Kairouan",
            "address_label": "Kiblia, Kairouan",
            "isVisble": true
        },
        {

            "lat": 35.662604,
            "long": 10.054397,
            "address": "M373+2QR Kairouan",
            "address_label": "Chebika",
            "isVisble": true

        }, {

            "lat": 35.719879,
            "long": 10.156165,
            "address": "El Ghabet",
            "address_label": "P594+XF3 El Ghabet",
            "isVisble": true

        }, {

            "lat": 35.710315,
            "long": 10.086748,
            "address": "P36P+4MH Kairouan",
            "address_label": "Kairouan Nord",
            "isVisble": false

        }, {


            "lat": 35.440572,
            "long": 10.166322,
            "address": "",
            "address_label": "Bou Hajla",
            "isVisble": true

        }, {

            "lat": 35.201148,
            "long": 9.845042,
            "address": "6R2W+F23 Kabbara",
            "address_label": "Nasrallah",
            "isVisble": true
        }, {


            "lat": 35.051330,
            "long": 10.041856,
            "address": "322R+GPQ Echrarda",
            "address_label": "Cherarda",
            "isVisble": false
        },

        {
            "lat": 35.319799,
            "long": 10.684509,
            "address": "8M9M+WR6 El Jem",
            "address_label": "Bou Merdes",
            "isVisble": true
        }, {

            "lat": 35.234296,
            "long": 8.974691,
            "address": "6XMF+PV8 Bou Zegam",
            "address_label": "Sbeitla",
            "isVisble": true
        }, {

            "lat": 35.574003,
            "long": 9.171427,
            "address": "H5FC+JH3 Dar ash Shaykh Ibrahim",
            "address_label": "Rouhia",
            "isVisble": true

        }, {

            "lat": 35.389200,
            "long": 8.696712,
            "address": "9MQW+MMG Khmouda",
            "address_label": "Thala",
            "isVisble": true

        }, {

            "lat": 35.443342,
            "long": 9.630056,
            "address": "CJVJ+82M Qasr al Kibrit",
            "address_label": "Hajeb El Ayoun",
            "isVisble": true
        }
    ]


}